CODE_CITY,CITY,UF,LATITUDE,LONGITUDE,HEIGHT,NM_UF
1700251,Abreulândia,TO,-9.62179071199836,-49.1624375554797,238.861866,TOCANTINS
2100055,Açailândia,MA,-4.95137700016248,-47.5066645931119,229.048825,MARANHÃO
2100105,Afonso Cunha,MA,-4.13501547687008,-43.3208690039685,67.197529,MARANHÃO
2100154,Água Doce Do Maranhão,MA,-2.84027827913681,-42.1155512017213,10.436902,MARANHÃO
1700301,Aguiarnópolis,TO,-6.5471708206181,-47.470456587945,173.193729,TOCANTINS
2100303,Aldeias Altas,MA,-4.63077949515206,-43.4687348529398,80.487172,MARANHÃO
1700350,Aliança Do Tocantins,TO,-11.3037430465089,-48.9412400221409,335.700857,TOCANTINS
1700400,Almas,TO,-11.5745234694478,-47.1741716842358,420.740438,TOCANTINS
2100436,Alto Alegre Do Maranhão,MA,-4.207227,-44.4482474945232,56.966469,MARANHÃO
2100501,Alto Parnaíba,MA,-9.10836593219112,-45.9273440133384,275.69814,MARANHÃO
1700707,Alvorada,TO,-12.4788153208227,-49.12681140673,302.24726,TOCANTINS
2200459,Alvorada Do Gurguéia,PI,-8.44395907228392,-43.8630715789216,268.783271,PIAUÍ
2100600,Amarante Do Maranhão,MA,-5.55766200018214,-46.7506375454972,250.762969,MARANHÃO
1701002,Ananás,TO,-6.36281815410008,-48.0797646061948,192.715457,TOCANTINS
2100808,Anapurus,MA,-3.66703466234686,-43.1057925096893,94.503552,MARANHÃO
2901403,Angical,BA,-12.0066827725325,-44.6958234827073,471.0,BAHIA
1701051,Angico,TO,-6.3877527497248,-47.8620778391735,270.833554,TOCANTINS
2200806,Antônio Almeida,PI,-7.21935583400696,-44.1965353200183,251.791863,PIAUÍ
1701101,Aparecida Do Rio Negro,TO,-9.9558777145605,-47.9766700113511,267.070795,TOCANTINS
1701309,Aragominas,TO,-7.1643492714437,-48.5234301922917,302.735223,TOCANTINS
1701903,Araguacema,TO,-8.80180254411115,-49.5618126396073,156.0,TOCANTINS
1702000,Araguaçu,TO,-12.9255837118616,-49.8286124432782,315.167807,TOCANTINS
1702109,Araguaína,TO,-7.19132893965496,-48.2087052518558,235.277019,TOCANTINS
1702158,Araguanã,TO,-6.58224942002919,-48.6437495469431,139.451152,TOCANTINS
1702208,Araguatins,TO,-5.65058647299995,-48.1235073430294,116.261365,TOCANTINS
2100907,Araioses,MA,-2.88925584643306,-41.8991394498654,10.104242,MARANHÃO
2100956,Arame,MA,-4.886081505,-46.0136362778351,128.643699,MARANHÃO
1702307,Arapoema,TO,-7.65256973541903,-49.0756373852721,209.446061,TOCANTINS
1702406,Arraias,TO,-12.9344198592593,-46.9461070585534,722.402051,TOCANTINS
1702554,Augustinópolis,TO,-5.46541429589652,-47.8809567910047,147.772414,TOCANTINS
1702703,Aurora Do Tocantins,TO,-12.7084898610615,-46.4070829808607,481.000844,TOCANTINS
2201101,Avelino Lopes,PI,-10.1347450128483,-43.9415101417959,432.625212,PIAUÍ
1702901,Axixá Do Tocantins,TO,-5.62430906592745,-47.7741560325221,217.832215,TOCANTINS
1703008,Babaçulândia,TO,-7.20186453206148,-47.7588161270324,161.381782,TOCANTINS
2101202,Bacabal,MA,-4.23152462978051,-44.7815559640891,25.184611,MARANHÃO
2902500,Baianópolis,BA,-12.3041247007939,-44.5360980467187,672.202298,BAHIA
2201150,Baixa Grande Do Ribeiro,PI,-7.85335195918549,-45.212815292567,347.98021,PIAUÍ
2101400,Balsas,MA,-7.53116999024552,-46.0389926733405,255.910533,MARANHÃO
1703057,Bandeirantes Do Tocantins,TO,-7.76485914125333,-48.5783806048644,290.992965,TOCANTINS
2101509,Barão De Grajaú,MA,-6.75895520558046,-43.0264526994269,110.360829,MARANHÃO
2101608,Barra Do Corda,MA,-5.5083395,-45.239011016111,152.522676,MARANHÃO
1703073,Barra Do Ouro,TO,-7.69176659865687,-47.6871349692244,163.374048,TOCANTINS
2903201,Barreiras,BA,-12.1449248883906,-45.0041684370285,441.997802,BAHIA
2201309,Barreiras Do Piauí,PI,-9.92124682674306,-45.4777877054503,404.970802,PIAUÍ
2101707,Barreirinhas,MA,-2.75008594875811,-42.8278025132041,5.037739,MARANHÃO
1703107,Barrolândia,TO,-9.83165336453342,-48.7314605907218,346.969179,TOCANTINS
2101731,Belágua,MA,-3.15677222752965,-43.510061642741,64.562445,MARANHÃO
2101806,Benedito Leite,MA,-7.2187997953852,-44.5598567990095,218.997828,MARANHÃO
2101939,Bernardo Do Mearim,MA,-4.63028749079229,-44.7643231034878,52.21505,MARANHÃO
1703206,Bernardo Sayão,TO,-7.86851248331281,-48.8990543467276,163.731013,TOCANTINS
2201705,Bertolínia,PI,-7.62862476310433,-43.9543877391026,290.856122,PIAUÍ
2201903,Bom Jesus,PI,-9.07094898367372,-44.3605250848238,299.871529,PIAUÍ
2903904,Bom Jesus Da Lapa,BA,-13.2541143730901,-43.417141642139,436.928875,BAHIA
1703305,Bom Jesus Do Tocantins,TO,-8.96334801285521,-48.1663804935405,188.018168,TOCANTINS
2102077,Bom Lugar,MA,-4.37550960146424,-45.0311078563238,40.984949,MARANHÃO
1703602,Brasilândia Do Tocantins,TO,-8.38488935107799,-48.485374419124,217.736921,TOCANTINS
1703701,Brejinho De Nazaré,TO,-11.0108050561865,-48.5586602281507,222.777925,TOCANTINS
2102101,Brejo,MA,-3.679178,-42.7508478268196,53.017318,MARANHÃO
2904407,Brejolândia,BA,-12.486693342119,-43.9656645942921,537.202051,BAHIA
2102200,Buriti,MA,-3.9455715,-42.9251061777803,54.824899,MARANHÃO
2102309,Buriti Bravo,MA,-5.83528813214674,-43.8356215415106,219.204782,MARANHÃO
1703800,Buriti Do Tocantins,TO,-5.31353885638917,-48.223250128075,155.460741,TOCANTINS
2102358,Buritirana,MA,-5.58891514171156,-47.0172250932177,230.460594,MARANHÃO
1703826,Cachoeirinha,TO,-6.11324164650466,-47.914197778559,200.41262,TOCANTINS
2102556,Campestre Do Maranhão,MA,-6.16471664583519,-47.3676328633342,165.593462,MARANHÃO
1703842,Campos Lindos,TO,-7.97168139413731,-46.8019743467067,297.387732,TOCANTINS
2906105,Canápolis,BA,-13.0759114976724,-44.2050289853753,703.496285,BAHIA
2102705,Cantanhede,MA,-3.62836431187274,-44.381816135839,23.075743,MARANHÃO
2102754,Capinzal Do Norte,MA,-4.7212453887722,-44.3304362519955,127.033842,MARANHÃO
2907103,Carinhanha,BA,-14.3020069035503,-43.7617772009392,446.452146,BAHIA
1703867,Cariri Do Tocantins,TO,-11.8889974638744,-49.1710407289889,291.100357,TOCANTINS
1703883,Carmolândia,TO,-7.03147877786106,-48.3959599306274,300.44747,TOCANTINS
2102804,Carolina,MA,-7.33078300523913,-47.4700918028279,179.763253,MARANHÃO
1703891,Carrasco Bonito,TO,-5.32266135485805,-48.0306334265692,116.001105,TOCANTINS
1703909,Caseara,TO,-9.26740621890348,-49.9486922677787,175.792959,TOCANTINS
2907400,Catolândia,BA,-12.3160059384947,-44.8597702833594,606.176021,BAHIA
2103000,Caxias,MA,-4.86167499015957,-43.3585394285192,77.461758,MARANHÃO
1704105,Centenário,TO,-8.9584636390938,-47.3383985145873,311.053772,TOCANTINS
1705102,Chapada Da Natividade,TO,-11.6242678313621,-47.7539048918565,354.776647,TOCANTINS
1704600,Chapada De Areia,TO,-10.1419885833334,-49.1831078580314,273.822331,TOCANTINS
2103208,Chapadinha,MA,-3.74002452,-43.361120781752,105.704466,MARANHÃO
2103257,Cidelândia,MA,-5.17742104721159,-47.7842327756716,177.811617,MARANHÃO
2908101,Cocos,BA,-14.1710775452171,-44.5456688581222,629.153853,BAHIA
2103307,Codó,MA,-4.45133750014621,-43.8860802350324,44.265667,MARANHÃO
2103406,Coelho Neto,MA,-4.25473750013981,-43.0140136155495,55.575961,MARANHÃO
2103505,Colinas,MA,-6.02736552019732,-44.2497802305352,146.291374,MARANHÃO
1705508,Colinas Do Tocantins,TO,-8.05462467549995,-48.4815945437489,233.502707,TOCANTINS
1716703,Colméia,TO,-8.72937180681859,-48.7570665856948,386.434647,TOCANTINS
2202752,Colônia Do Gurguéia,PI,-8.18757421634094,-43.7960171560657,227.336931,PIAUÍ
1705557,Combinado,TO,-12.8186076720311,-46.5520723402661,428.169059,TOCANTINS
1705607,Conceição Do Tocantins,TO,-12.2172777669654,-47.292868810807,408.838513,TOCANTINS
2909109,Coribe,BA,-13.8278416058215,-44.4530364349169,673.810455,BAHIA
2103604,Coroatá,MA,-4.128976,-44.1255992014644,36.771897,MARANHÃO
2202901,Corrente,PI,-10.4409360381237,-45.1633125235767,443.629042,PIAUÍ
2909307,Correntina,BA,-13.3417718212105,-44.641086701211,574.456246,BAHIA
2909406,Cotegipe,BA,-12.0285973836155,-44.2524761376623,475.681986,BAHIA
1706001,Couto Magalhães,TO,-8.35511836963524,-49.176571570853,194.727349,TOCANTINS
1706100,Cristalândia,TO,-10.5907246371177,-49.1863002912612,274.339322,TOCANTINS
2203008,Cristalândia Do Piauí,PI,-10.6478037517985,-45.1860307001326,486.488619,PIAUÍ
2203107,Cristino Castro,PI,-8.82018628851015,-44.2244147473452,236.859155,PIAUÍ
2909703,Cristópolis,BA,-12.2314508089662,-44.4118418963,684.067916,BAHIA
1706258,Crixás Do Tocantins,TO,-11.1042742936043,-48.9155138256477,239.512231,TOCANTINS
2203206,Curimatá,PI,-10.0312924303294,-44.3007222328749,337.471062,PIAUÍ
2203230,Currais,PI,-9.01243383893679,-44.4030021530455,349.748379,PIAUÍ
1706506,Darcinópolis,TO,-6.71235100148176,-47.7521611102799,287.169246,TOCANTINS
2103752,Davinópolis,MA,-5.53445621610635,-47.4049963875281,147.346782,MARANHÃO
1707009,Dianópolis,TO,-11.625231878065,-46.8204090669435,689.26917,TOCANTINS
1707108,Divinópolis Do Tocantins,TO,-9.79530114022946,-49.2054131873503,262.828215,TOCANTINS
1707207,Dois Irmãos Do Tocantins,TO,-9.26129670979711,-49.0673386442723,256.687621,TOCANTINS
2103802,Dom Pedro,MA,-5.03844763516531,-44.4400099109689,137.883548,MARANHÃO
1707306,Dueré,TO,-11.3412854167798,-49.2658759161628,232.096256,TOCANTINS
2103901,Duque Bacelar,MA,-4.14781909711357,-42.9441802036073,49.644393,MARANHÃO
2203602,Eliseu Martins,PI,-8.09646228958409,-43.6648111316973,260.112666,PIAUÍ
1707405,Esperantina,TO,-5.36660805940451,-48.5441476004124,99.868761,TOCANTINS
2104008,Esperantinópolis,MA,-4.87030089747643,-44.8860686990188,115.3078,MARANHÃO
2104057,Estreito,MA,-6.56808498021472,-47.4478829861377,150.293844,MARANHÃO
1707553,Fátima,TO,-10.7525087280848,-48.8989826586808,329.776316,TOCANTINS
2910776,Feira Da Mata,BA,-14.2105645058372,-44.283463938437,481.234514,BAHIA
2104073,Feira Nova Do Maranhão,MA,-6.96313554062729,-46.6873552159638,334.713877,MARANHÃO
2104081,Fernando Falcão,MA,-6.154978462916,-44.9107074022131,236.540333,MARANHÃO
1707652,Figueirópolis,TO,-12.1367799832225,-49.1738467307434,294.467697,TOCANTINS
1707702,Filadélfia,TO,-7.3376119059308,-47.484964141532,157.963023,TOCANTINS
2104099,Formosa Da Serra Negra,MA,-6.43530410561392,-46.1863570068861,273.035807,MARANHÃO
2911105,Formosa Do Rio Preto,BA,-11.0470324906679,-45.190990909729,495.545564,BAHIA
1708205,Formoso Do Araguaia,TO,-11.8051419686495,-49.5268603629125,268.534548,TOCANTINS
1708254,Fortaleza Do Tabocão,TO,-9.05896530114982,-48.5174264210488,225.868742,TOCANTINS
2104107,Fortaleza Dos Nogueiras,MA,-6.9659260874923,-46.1855575419836,448.154653,MARANHÃO
2104206,Fortuna,MA,-5.73622413247702,-44.1606284272259,217.82378,MARANHÃO
2204402,Gilbués,PI,-9.83456990551612,-45.3469199782092,450.445901,PIAUÍ
1708304,Goianorte,TO,-8.77052080482939,-48.9368901923611,262.436486,TOCANTINS
1709005,Goiatins,TO,-7.7091723901957,-47.3154354891583,188.053175,TOCANTINS
2104404,Gonçalves Dias,MA,-5.14395556946104,-44.3059065359375,149.133723,MARANHÃO
2104503,Governador Archer,MA,-5.02538782392684,-44.2757565261253,132.852,MARANHÃO
2104552,Governador Edison Lobão,MA,-5.74741173851254,-47.3689358390373,204.163669,MARANHÃO
2104602,Governador Eugênio Barros,MA,-5.32249100152954,-44.2469626460204,135.674442,MARANHÃO
2104628,Governador Luiz Rocha,MA,-5.47286468491781,-44.0708873355169,121.560584,MARANHÃO
2104701,Graça Aranha,MA,-5.40482121305463,-44.33579125992,198.057261,MARANHÃO
2104800,Grajaú,MA,-5.81854843133104,-46.1423956359934,151.01878,MARANHÃO
1709302,Guaraí,TO,-8.83616565750443,-48.5086406064702,257.325051,TOCANTINS
1709500,Gurupi,TO,-11.72977232286,-49.0714774689303,300.351357,TOCANTINS
2105005,Humberto De Campos,MA,-2.59122397226084,-43.4650921443146,10.412747,MARANHÃO
2105203,Igarapé Grande,MA,-4.66085380623745,-44.8674033458603,39.700963,MARANHÃO
2105302,Imperatriz,MA,-5.52652402518114,-47.4798108057682,130.717348,MARANHÃO
1709807,Ipueiras,TO,-11.2462886215917,-48.4519262288947,226.594554,TOCANTINS
1710508,Itacajá,TO,-8.39098055231856,-47.768112402678,196.480857,TOCANTINS
1710706,Itaguatins,TO,-5.77538508840222,-47.4799359489833,156.704499,TOCANTINS
2105351,Itaipava Do Grajaú,MA,-5.1445822617698,-45.792682503469,107.176355,MARANHÃO
2105401,Itapecuru Mirim,MA,-3.39904548011184,-44.354263390434,21.883496,MARANHÃO
1710904,Itapiratins,TO,-8.38432959344297,-48.1111996094691,179.519091,TOCANTINS
1711100,Itaporã Do Tocantins,TO,-8.56882861156054,-48.6932637032248,339.248352,TOCANTINS
2105427,Itinga Do Maranhão,MA,-4.45500399844588,-47.5279099637574,166.518744,MARANHÃO
2917359,Jaborandi,BA,-13.6259340019621,-44.4659699896562,521.784221,BAHIA
2105450,Jatobá,MA,-5.81966693677504,-44.2199147698158,190.921159,MARANHÃO
1711506,Jaú Do Tocantins,TO,-12.6529263692706,-48.5946082927248,350.583423,TOCANTINS
2105476,Jenipapo Dos Vieiras,MA,-5.36942492643339,-45.6333791074203,173.367514,MARANHÃO
2105500,João Lisboa,MA,-5.45366294155917,-47.4050361497684,176.921736,MARANHÃO
2105609,Joselândia,MA,-4.97269332894745,-44.6991525645005,127.035522,MARANHÃO
1711803,Juarina,TO,-8.11742396760678,-49.0986431854272,200.295256,TOCANTINS
2205524,Júlio Borges,PI,-10.326786813699,-44.2437006323999,424.625118,PIAUÍ
2105807,Lago Do Junco,MA,-4.60764321768366,-45.0513443921165,73.384309,MARANHÃO
2105948,Lago Dos Rodrigues,MA,-4.61237577693148,-44.9764423255877,61.616255,MARANHÃO
2105906,Lago Verde,MA,-4.03871129527666,-44.9376352319942,26.64068,MARANHÃO
1711902,Lagoa Da Confusão,TO,-10.7886955575897,-49.620085339146,188.205395,TOCANTINS
2105922,Lagoa Do Mato,MA,-6.04527729657082,-43.5275591165627,220.309968,MARANHÃO
1711951,Lagoa Do Tocantins,TO,-10.2968866969998,-47.5614466302738,315.985955,TOCANTINS
1712009,Lajeado,TO,-9.74468243573559,-48.3585039506901,195.580364,TOCANTINS
2105989,Lajeado Novo,MA,-6.19160922666686,-47.0324475171004,177.331906,MARANHÃO
2205607,Landri Sales,PI,-7.26659997541352,-43.9310455151444,304.118358,PIAUÍ
1712157,Lavandeira,TO,-12.7916587876518,-46.5066757157435,403.02284,TOCANTINS
2106003,Lima Campos,MA,-4.51704598721753,-44.4693403292236,59.506667,MARANHÃO
1712405,Lizarda,TO,-9.59457028780967,-46.6751654558461,415.984801,TOCANTINS
2106102,Loreto,MA,-7.09445416538222,-45.1392416375273,211.003308,MARANHÃO
2919553,Luís Eduardo Magalhães,BA,-12.0783722561969,-45.8004644064563,768.531308,BAHIA
1712454,Luzinópolis,TO,-6.19398966023577,-47.856828041414,201.753297,TOCANTINS
2106300,Magalhães De Almeida,MA,-3.3966676742208,-42.2015066913751,17.420408,MARANHÃO
2205904,Manoel Emídio,PI,-8.01135867397569,-43.8754746716661,245.405068,PIAUÍ
2920452,Mansidão,BA,-10.715828960029,-44.0364854095632,514.985476,BAHIA
2206001,Marcos Parente,PI,-7.11929537745121,-43.8883140086213,283.947438,PIAUÍ
1712504,Marianópolis Do Tocantins,TO,-9.79888035935058,-49.6510339944378,198.482168,TOCANTINS
2106409,Mata Roma,MA,-3.61904550989372,-43.1203894235718,88.344559,MARANHÃO
1712702,Mateiros,TO,-10.5444288460778,-46.412465743092,520.974283,TOCANTINS
2106607,Matões,MA,-5.52246501943405,-43.201208282913,186.948543,MARANHÃO
2106631,Matões Do Norte,MA,-3.62751878021672,-44.5502445069402,34.689749,MARANHÃO
1712801,Maurilândia Do Tocantins,TO,-5.95256642121045,-47.5048799601751,151.011032,TOCANTINS
2106672,Milagres Do Maranhão,MA,-3.58220664139805,-42.6107528325103,26.50058,MARANHÃO
1713205,Miracema Do Tocantins,TO,-9.56834607764652,-48.3879913115193,190.429632,TOCANTINS
2106706,Mirador,MA,-6.37756569538775,-44.3626097938789,187.079195,MARANHÃO
2106755,Miranda Do Norte,MA,-3.56264477442983,-44.5842756917321,66.62825,MARANHÃO
1713304,Miranorte,TO,-9.51740473109312,-48.5926319369139,225.601835,TOCANTINS
2206605,Monte Alegre Do Piauí,PI,-9.75583366808834,-45.2957402208575,447.659628,PIAUÍ
1713601,Monte Do Carmo,TO,-10.7635421946238,-48.1104200299112,305.379892,TOCANTINS
1713700,Monte Santo Do Tocantins,TO,-10.005591431794,-48.9908906033935,295.556787,TOCANTINS
2107001,Montes Altos,MA,-5.82856250416417,-47.0704395080146,249.583101,MARANHÃO
2206654,Morro Cabeça No Tempo,PI,-9.71931949215443,-43.9018743653614,504.15628,PIAUÍ
1713957,Muricilândia,TO,-7.13851928516033,-48.6067452770067,182.756984,TOCANTINS
1714203,Natividade,TO,-11.7053573825042,-47.7272575338232,335.696204,TOCANTINS
1714302,Nazaré,TO,-6.37255796928561,-47.6669771825263,210.04848,TOCANTINS
2107209,Nina Rodrigues,MA,-3.46246428944702,-43.9044847603497,17.366039,MARANHÃO
2107258,Nova Colinas,MA,-7.12056600356251,-46.2593252229153,405.571674,MARANHÃO
2107308,Nova Iorque,MA,-6.73320330579158,-44.0486267271013,201.505273,MARANHÃO
1714880,Nova Olinda,TO,-7.6333149106925,-48.4248067900164,252.491259,TOCANTINS
1715002,Nova Rosalândia,TO,-10.5668711393323,-48.9061807245023,262.599744,TOCANTINS
1715101,Novo Acordo,TO,-9.96848646570169,-47.6681483922167,226.037328,TOCANTINS
1715150,Novo Alegre,TO,-12.9099386744081,-46.5772973536675,514.289552,TOCANTINS
1715259,Novo Jardim,TO,-11.815875050149,-46.6307872958899,640.884544,TOCANTINS
2107407,Olho D'água Das Cunhãs,MA,-4.13727592980541,-45.1195796205,42.935582,MARANHÃO
1715507,Oliveira De Fátima,TO,-10.7083627090618,-48.9074015689032,304.023053,TOCANTINS
1721000,Palmas,TO,-10.1632533267928,-48.3510437082462,234.047277,TOCANTINS
2207405,Palmeira Do Piauí,PI,-8.72950111876504,-44.2325685791726,284.88902,PIAUÍ
1715705,Palmeirante,TO,-7.85756137614505,-47.9342497089842,167.748162,TOCANTINS
1713809,Palmeiras Do Tocantins,TO,-6.61186233456171,-47.5586835262825,176.07136,TOCANTINS
1715754,Palmeirópolis,TO,-13.0398884336692,-48.4134139552316,454.71199,TOCANTINS
2107704,Paraibano,MA,-6.43182541413892,-43.9857620488226,285.671258,MARANHÃO
1716109,Paraíso Do Tocantins,TO,-10.1712207549999,-48.8866300840169,398.578296,TOCANTINS
1716208,Paranã,TO,-12.6204814887183,-47.8840837284426,270.015519,TOCANTINS
2923704,Paratinga,BA,-12.6906971249291,-43.1820250755777,430.977346,BAHIA
2207603,Parnaguá,PI,-10.2171809705429,-44.6343146131202,333.246033,PIAUÍ
2107803,Parnarama,MA,-5.6844671764059,-43.0904013534701,83.097975,MARANHÃO
2107902,Passagem Franca,MA,-6.17399442555871,-43.781745225862,218.682539,MARANHÃO
2108009,Pastos Bons,MA,-6.60402773206398,-44.0886025133719,308.397342,MARANHÃO
1716307,Pau D'arco,TO,-7.53999835569997,-49.3633064810091,161.936181,TOCANTINS
2108058,Paulino Neves,MA,-2.71820598982708,-42.5454239809373,3.341475,MARANHÃO
2108207,Pedreiras,MA,-4.56935068809905,-44.6037348763271,32.51849,MARANHÃO
1716505,Pedro Afonso,TO,-8.96444959242294,-48.1775561127386,181.957873,TOCANTINS
1716604,Peixe,TO,-12.029773830853,-48.537810626336,246.033236,TOCANTINS
1716653,Pequizeiro,TO,-8.59334065444845,-48.9351798669158,292.582377,TOCANTINS
2108454,Peritoró,MA,-4.37022511765711,-44.3258535239149,57.679832,MARANHÃO
1717008,Pindorama Do Tocantins,TO,-11.1382025846808,-47.5756877172877,437.147877,TOCANTINS
2108702,Pio Xii,MA,-3.88758753012782,-45.169960388665,36.095743,MARANHÃO
2108801,Pirapemas,MA,-3.72532906611683,-44.2282808838415,36.788545,MARANHÃO
1717206,Piraquê,TO,-6.76977703340735,-48.2937073910932,194.960543,TOCANTINS
1717503,Pium,TO,-10.4409311179305,-49.1666580115747,268.45852,TOCANTINS
2108900,Poção De Pedras,MA,-4.75002521124495,-44.9515514003151,57.99466,MARANHÃO
1717800,Ponte Alta Do Bom Jesus,TO,-12.0878129084344,-46.4695867923952,518.670469,TOCANTINS
1717909,Ponte Alta Do Tocantins,TO,-10.7406728486815,-47.5411803583019,315.882195,TOCANTINS
2208551,Porto Alegre Do Piauí,PI,-6.97172468664628,-44.1948371018939,183.097551,PIAUÍ
1718006,Porto Alegre Do Tocantins,TO,-11.6072590990885,-47.0474256004295,382.414125,TOCANTINS
2109007,Porto Franco,MA,-6.35418186391414,-47.3821649019193,188.027924,MARANHÃO
1718204,Porto Nacional,TO,-10.708569917,-48.4121534584309,234.029467,TOCANTINS
1718303,Praia Norte,TO,-5.39671287737827,-47.8147317333423,128.757235,TOCANTINS
2109106,Presidente Dutra,MA,-5.28237425775883,-44.4929188624246,106.207612,MARANHÃO
1718402,Presidente Kennedy,TO,-8.52996082761918,-48.504330670109,275.440644,TOCANTINS
2109304,Presidente Vargas,MA,-3.40201152220656,-44.0334018673342,38.607815,MARANHÃO
2109403,Primeira Cruz,MA,-2.51058317196358,-43.4424433046987,1.650929,MARANHÃO
1718451,Pugmil,TO,-10.4243071562468,-48.8942204487831,296.17995,TOCANTINS
1718501,Recursolândia,TO,-8.73536045388012,-47.2380411950208,334.137764,TOCANTINS
2208700,Redenção Do Gurguéia,PI,-9.49344824144475,-44.5812141605608,319.969684,PIAUÍ
2109502,Riachão,MA,-7.36456500024021,-46.6233501429074,394.084913,MARANHÃO
2926202,Riachão Das Neves,BA,-11.7462475299556,-44.9164697719097,517.786021,BAHIA
1718550,Riachinho,TO,-6.44221138769741,-48.141045502038,158.575599,TOCANTINS
2208858,Riacho Frio,PI,-10.1287276881395,-44.9525300482529,420.400645,PIAUÍ
2109551,Ribamar Fiquene,MA,-5.93382285881857,-47.3834777870799,155.446211,MARANHÃO
2208908,Ribeiro Gonçalves,PI,-7.55803424497219,-45.2456386842602,213.017834,PIAUÍ
1718659,Rio Da Conceição,TO,-11.404940023899,-46.8803997045722,518.965692,TOCANTINS
1718709,Rio Dos Bois,TO,-9.3437422386879,-48.5330479716014,208.162542,TOCANTINS
1718758,Rio Sono,TO,-9.34778933411611,-47.8999416391395,202.931217,TOCANTINS
2109700,Sambaíba,MA,-7.13835089749796,-45.3442031980139,204.047862,MARANHÃO
1718808,Sampaio,TO,-5.3492956164967,-47.8757924571994,125.433696,TOCANTINS
1718840,Sandolândia,TO,-12.5416001674833,-49.9333881543012,249.798948,TOCANTINS
1718865,Santa Fé Do Araguaia,TO,-7.1499363850312,-48.6939418034376,180.042188,TOCANTINS
2209203,Santa Filomena,PI,-9.10679570533628,-45.9205564410726,293.590339,PIAUÍ
2109759,Santa Filomena Do Maranhão,MA,-5.4997668067221,-44.5637140401312,159.968313,MARANHÃO
2209302,Santa Luz,PI,-8.94462421689483,-44.1295859062574,329.616986,PIAUÍ
2928109,Santa Maria Da Vitória,BA,-13.3935452501399,-44.1983088657849,457.363151,BAHIA
1718881,Santa Maria Do Tocantins,TO,-8.77497644926651,-47.7452704192246,319.297085,TOCANTINS
2110104,Santa Quitéria Do Maranhão,MA,-3.49848499511509,-42.5628730097352,30.366193,MARANHÃO
2928406,Santa Rita De Cássia,BA,-11.0080450698517,-44.5190497202788,441.091563,BAHIA
1718899,Santa Rita Do Tocantins,TO,-10.8664553694029,-48.909294007359,290.732558,TOCANTINS
1718907,Santa Rosa Do Tocantins,TO,-11.4514039985494,-48.1199542217524,291.372477,TOCANTINS
1719004,Santa Tereza Do Tocantins,TO,-10.2823615278187,-47.8062883215081,274.646666,TOCANTINS
1720002,Santa Terezinha Do Tocantins,TO,-6.43699761844425,-47.6842853630081,256.868543,TOCANTINS
2928208,Santana,BA,-12.98075117473,-44.0532579029164,539.850499,BAHIA
2110237,Santana Do Maranhão,MA,-3.11306834278169,-42.4007677571893,33.152745,MARANHÃO
2110278,Santo Amaro Do Maranhão,MA,-2.5027211989687,-43.2552849422448,7.293169,MARANHÃO
2110302,Santo Antônio Dos Lopes,MA,-4.87381957559703,-44.3614474338019,122.116357,MARANHÃO
2110401,São Benedito Do Rio Preto,MA,-3.33276600373026,-43.5299918701629,34.680098,MARANHÃO
1720101,São Bento Do Tocantins,TO,-6.04499925719239,-47.9193922870534,218.373974,TOCANTINS
2110609,São Bernardo,MA,-3.36543651011074,-42.4230096609141,41.716878,MARANHÃO
2928901,São Desidério,BA,-12.3608954905377,-44.9740962396215,503.585922,BAHIA
2110658,São Domingos Do Azeitão,MA,-6.80442500975138,-44.6504239102536,308.194629,MARANHÃO
2110708,São Domingos Do Maranhão,MA,-5.5656420001824,-44.3928792568666,183.585151,MARANHÃO
2110807,São Félix De Balsas,MA,-7.08468515424976,-44.8114476614751,189.115113,MARANHÃO
2929057,São Félix Do Coribe,BA,-13.4042182497929,-44.1968725574679,443.910916,BAHIA
1720150,São Félix Do Tocantins,TO,-10.1732858539628,-46.6549808310123,416.110986,TOCANTINS
2110856,São Francisco Do Brejão,MA,-5.13020078716627,-47.3911373985947,261.122886,MARANHÃO
2110906,São Francisco Do Maranhão,MA,-6.2527979166509,-42.8653217275577,103.414761,MARANHÃO
2209757,São Gonçalo Do Gurguéia,PI,-10.0299401062335,-45.301405510563,437.275626,PIAUÍ
2111052,São João Do Paraíso,MA,-6.46622228636398,-47.0506104204952,291.953774,MARANHÃO
2111078,São João Do Soter,MA,-5.11573926436997,-43.8181817951061,119.388648,MARANHÃO
2111102,São João Dos Patos,MA,-6.4982081521098,-43.7029101657958,337.870105,MARANHÃO
2111250,São José Dos Basílios,MA,-5.04868724515117,-44.5824465175581,77.432652,MARANHÃO
2111409,São Luís Gonzaga Do Maranhão,MA,-4.37391849056593,-44.6627084964498,32.80281,MARANHÃO
2111508,São Mateus Do Maranhão,MA,-4.03455051013261,-44.4685628110946,48.609885,MARANHÃO
1720200,São Miguel Do Tocantins,TO,-5.55381952879429,-47.5730023393731,157.657575,TOCANTINS
2111532,São Pedro Da Água Branca,MA,-5.08891099740741,-48.4236235936456,159.451906,MARANHÃO
2111573,São Pedro Dos Crentes,MA,-6.82855564083834,-46.5325803473698,337.718149,MARANHÃO
2111607,São Raimundo Das Mangabeiras,MA,-7.02696265716848,-45.4848314302202,218.788996,MARANHÃO
2111631,São Raimundo Do Doca Bezerra,MA,-5.10318184489716,-45.0841627902783,120.650104,MARANHÃO
2111672,São Roberto,MA,-5.01736688238089,-44.9919011592934,87.917556,MARANHÃO
1720259,São Salvador Do Tocantins,TO,-12.7474334144954,-48.2320849916811,272.83681,TOCANTINS
1720309,São Sebastião Do Tocantins,TO,-5.25896145373507,-48.2038341490288,116.0,TOCANTINS
1720499,São Valério,TO,-11.9730674594797,-48.2329484333802,310.395463,TOCANTINS
2111722,Satubinha,MA,-4.03573549481028,-45.2336295762481,56.062878,MARANHÃO
2210623,Sebastião Barros,PI,-10.8166752206016,-44.8332841775162,545.059801,PIAUÍ
2210631,Sebastião Leal,PI,-7.57738563015195,-44.0676917696104,347.102766,PIAUÍ
2111748,Senador Alexandre Costa,MA,-5.26107654438389,-44.056301506417,118.145351,MARANHÃO
2111763,Senador La Rocque,MA,-5.44183249517839,-47.2891914239822,164.247572,MARANHÃO
2930154,Serra Do Ramalho,BA,-13.5644659880715,-43.5807307421456,443.789101,BAHIA
2930303,Serra Dourada,BA,-12.7625947392978,-43.9523372558921,526.532491,BAHIA
1720655,Silvanópolis,TO,-11.1498613085628,-48.1798241355321,265.702943,TOCANTINS
2930758,Sítio Do Mato,BA,-13.0857927061126,-43.4664411672544,432.964715,BAHIA
2111805,Sítio Novo,MA,-5.87062989131234,-46.6949833406808,258.577929,MARANHÃO
1720804,Sítio Novo Do Tocantins,TO,-5.60472685665309,-47.6374226504604,192.47696,TOCANTINS
1720853,Sucupira,TO,-11.98622151086,-48.9111262826871,288.527931,TOCANTINS
2111904,Sucupira Do Norte,MA,-6.47828444762036,-44.1886027051903,478.265571,MARANHÃO
2111953,Sucupira Do Riachão,MA,-6.42010840512647,-43.5458533208452,299.216171,MARANHÃO
2930907,Tabocas Do Brejo Velho,BA,-12.7073009223161,-44.0111890670864,535.320716,BAHIA
1720903,Taguatinga,TO,-12.3961417386813,-46.4387317008831,618.75828,TOCANTINS
1720937,Taipas Do Tocantins,TO,-12.1928372090542,-46.9845717959323,406.578814,TOCANTINS
1720978,Talismã,TO,-12.7875384068603,-49.0911184339334,297.0,TOCANTINS
2112001,Tasso Fragoso,MA,-8.47983101786688,-45.7441235175102,239.729908,MARANHÃO
2112100,Timbiras,MA,-4.253840505,-43.9384339738391,37.124736,MARANHÃO
2112209,Timon,MA,-5.10068111012935,-42.8337278988597,79.496323,MARANHÃO
1721109,Tocantínia,TO,-9.55814773400572,-48.3758796714267,191.678459,TOCANTINS
1721208,Tocantinópolis,TO,-6.32563437602796,-47.4274129286927,171.761803,TOCANTINS
2112233,Trizidela Do Vale,MA,-4.57012685660997,-44.6106851966461,27.847075,MARANHÃO
2112308,Tuntum,MA,-5.24965554,-44.6490121516647,109.085686,MARANHÃO
1721257,Tupirama,TO,-8.98056954941714,-48.2066848030641,211.897079,TOCANTINS
1721307,Tupiratins,TO,-8.39552999695801,-48.1229957408688,177.478798,TOCANTINS
2112506,Tutóia,MA,-2.76355019688869,-42.2768472076943,4.059947,MARANHÃO
2112605,Urbano Santos,MA,-3.20840949958587,-43.4042484723562,42.092097,MARANHÃO
2211209,Uruçuí,PI,-7.22950334456247,-44.5602559238525,175.43514,PIAUÍ
2112704,Vargem Grande,MA,-3.54189600011652,-43.9166644901652,38.283026,MARANHÃO
2112852,Vila Nova Dos Martírios,MA,-5.18351151920427,-48.138926482601,124.13528,MARANHÃO
1722081,Wanderlândia,TO,-6.8501255166885,-47.9562677260283,266.586487,TOCANTINS
2933455,Wanderley,BA,-12.1201503140061,-43.8889295198526,553.542351,BAHIA
1722107,Xambioá,TO,-6.41188502017984,-48.531601072817,150.222935,TOCANTINS